[{"code":"SCE","name":"State College","coordinates":{"lon":-77.84823,"lat":40.85372},"time_zone":"America/New_York","name_translations":{"de":"State College","en":"State College","zh-CN":"大学城","tr":"State College","ru":"Стейт Колледж","it":"State College","es":"State College","fr":"State College","th":"สเตทคอลเลจ"},"country_code":"US"},{"code":"AAB","name":"Arrabury","coordinates":{"lon":141.04167,"lat":-26.7},"time_zone":"Australia/Brisbane","name_translations":{"de":"Arrabury","en":"Arrabury","zh-CN":"阿拉伯里","ru":"Аррабури"},"country_code":"AU"},{"code":"AAC","name":"El Arish","coordinates":{"lon":33.75,"lat":31.133333},"time_zone":"Africa/Cairo","name_translations":{"en":"El Arish","zh-CN":"阿里什","tr":"Al Arish","ru":"Эль-Ариш"},"country_code":"EG"},{"code":"AAE","name":"Annaba","coordinates":{"lon":7.811857,"lat":36.821392},"time_zone":"Africa/Algiers","name_translations":{"de":"Annaba","en":"Annaba","zh-CN":"安纳巴","tr":"Annaba","ru":"Аннаба","it":"Annaba","es":"Annaba","fr":"Annaba","th":"แอนนาบา"},"country_code":"DZ"},{"code":"AAF","name":"Apalachicola","coordinates":{"lon":-84.98333,"lat":29.733334},"time_zone":"America/New_York","name_translations":{"en":"Apalachicola","zh-CN":"阿帕拉契科拉","tr":"Apalachicola","ru":"Апалачикола"},"country_code":"US"},{"code":"AAG","name":"Arapoti","coordinates":{"lon":-49.79,"lat":-24.103611},"time_zone":"America/Sao_Paulo","name_translations":{"en":"Arapoti","zh-CN":"阿拉波蒂","tr":"Arapoti","ru":"Арапоти"},"country_code":"BR"},{"code":"AAH","name":"Aachen","coordinates":{"lon":6.0815102,"lat":50.7754385},"time_zone":"Europe/Berlin","name_translations":{"en":"Aachen","en-GB":"","en-AU":"","de":"","zh-CN":"亚琛","ru":"Ахен","tr":"Aachen","en-CA":"","en-NZ":"","en-IE":"","en-SG":"","en-IN":"","es":"","fr":"","it":""},"country_code":"DE"},{"code":"AAI","name":"Arraias","coordinates":{"lon":-46.933334,"lat":-12.916667},"time_zone":"America/Araguaina","name_translations":{"en":"Arraias","zh-CN":"阿拉亚斯","ru":"Арраяс"},"country_code":"BR"},{"code":"AAJ","name":"Awaradam","coordinates":{"lon":-55.36667,"lat":3.9},"time_zone":"America/Paramaribo","name_translations":{"en":"Awaradam","tr":"Cayana","ru":"Аварадам"},"country_code":"SR"},{"code":"AAK","name":"Aranuka","coordinates":{"lon":173.58333,"lat":0.166667},"time_zone":"Pacific/Tarawa","name_translations":{"en":"Aranuka","zh-CN":"阿兰努卡","ru":"Аранука"},"country_code":"KI"},{"code":"AAL","name":"Aalborg","coordinates":{"lon":9.917771,"lat":57.028811},"time_zone":"Europe/Copenhagen","name_translations":{"de":"Aalborg","en":"Aalborg","zh-CN":"奥尔堡","tr":"Aalborg","ru":"Ольборг","it":"Aalborg","es":"Aalborg","fr":"Aalborg","th":"อัลบอร์ก"},"country_code":"DK"},{"code":"AAM","name":"Mala Mala","coordinates":{"lon":31.533333,"lat":-24.8},"time_zone":"Africa/Johannesburg","name_translations":{"en":"Mala Mala","zh-CN":"马拉马拉","ru":"Мала Мала"},"country_code":"ZA"},{"code":"AAN","name":"Al Ain","coordinates":{"lon":55.7447222,"lat":24.2075},"time_zone":"Asia/Dubai","name_translations":{"de":"Al-Ain","en":"Al Ain","zh-CN":"艾因","tr":"Al Ain","ru":"Аль-Айн","it":"Al Ain","es":"Al Ain","fr":"Al Ain","th":"อัลเอน"},"country_code":"AE"},{"code":"AAO","name":"Anaco","coordinates":{"lon":-64.46389,"lat":9.431944},"time_zone":"America/Caracas","name_translations":{"de":"Anaco","en":"Anaco","zh-CN":"阿纳科","ru":"Анако"},"country_code":"VE"},{"code":"AAQ","name":"Anapa","coordinates":{"lon":37.316666,"lat":44.9},"time_zone":"Europe/Moscow","name_translations":{"de":"Anapa","en":"Anapa","zh-CN":"阿纳帕","tr":null,"ru":"Анапа","it":"Anapa","es":"Anapa","fr":"Anapa","th":"อะนาปา"},"country_code":"RU"},{"code":"AAR","name":"Aarhus","coordinates":{"lon":10.203921,"lat":56.162939},"time_zone":"Europe/Copenhagen","name_translations":{"de":"Århus","en":"Aarhus","ru":"Орхус","zh-CN":"奥尔胡斯","tr":"Aarhus","it":"Arhus","es":"Arhus","fr":"Arhus","th":"อาร์ฮุส"},"country_code":"DK"},{"code":"AAS","name":"Apalapsili","coordinates":{"lon":139.25,"lat":-3.916667},"time_zone":"Asia/Jayapura","name_translations":{"de":"Apalapsili","en":"Apalapsili","zh-CN":"阿帕拉普希里","ru":"Апалапзили"},"country_code":"ID"},{"code":"AAT","name":"Altay","coordinates":{"lon":88.08444,"lat":47.750362},"time_zone":"Asia/Shanghai","name_translations":{"de":"Altay","en":"Altay","zh-CN":"阿勒泰","tr":"Altay","ru":"Алтай","it":"Altay","es":"Altay","fr":"Altay","th":"อัลไต"},"country_code":"CN"},{"code":"AAU","name":"Asau","coordinates":{"lon":-172.6,"lat":-13.458333},"time_zone":"Pacific/Apia","name_translations":{"de":"Asau","en":"Asau","ru":"Асау"},"country_code":"WS"},{"code":"AAV","name":"Surallah","coordinates":{"lon":124.76667,"lat":6.333333},"time_zone":"Asia/Manila","name_translations":{"de":"Alah","en":"Surallah","zh-CN":"安拉","ru":"Сураллах"},"country_code":"PH"},{"code":"AZR","name":"Adrar","coordinates":{"lon":-0.283333,"lat":27.883333},"time_zone":"Africa/Algiers","name_translations":{"de":"Adrar","en":"Adrar","zh-CN":"阿德拉尔","tr":"Adrar","ru":"Адрар","it":"Adrar","es":"Adrar","fr":"Adrar","th":"อาดราร์"},"country_code":"DZ"},{"code":"ACR","name":"Araracuara","coordinates":{"lon":-72.3,"lat":-0.383333},"time_zone":"America/Bogota","name_translations":{"de":"Araracuara","en":"Araracuara","ru":"Араракуара","it":"Araracuara","es":"Araracuara","fr":"Araracuara","th":"อาราราคัวรา"},"country_code":"CO"},{"code":"GYL","name":"Argyle","coordinates":{"lon":128.66667,"lat":-16.333332},"time_zone":"Australia/Perth","name_translations":{"de":"Argyle","en":"Argyle","zh-CN":"阿盖尔","tr":"Argyle","ru":"Аргайл","th":"อาไกล์"},"country_code":"AU"},{"code":"CNX","name":"Chiang Mai","coordinates":{"lon":98.96841,"lat":18.769573},"time_zone":"Asia/Bangkok","name_translations":{"en":"Chiang Mai","en-GB":"","en-AU":"","de":"Chiang Mai","zh-CN":"清迈","ru":"Чианг Май","tr":"Chiang Mai","en-CA":"","en-NZ":"","en-IE":"","en-SG":"","en-IN":"","es":"Chiang Mai","fr":"Chiang Mai","it":"Chiang Mai","th":"เชียงใหม่"},"country_code":"TH"},{"code":"JHB","name":"Johor Bahru","coordinates":{"lon":103.67083,"lat":1.638889},"time_zone":"Asia/Kuala_Lumpur","name_translations":{"en":"Johor Bahru","en-GB":"","en-AU":"","de":"Johor Bahru","zh-CN":"新山","ru":"Джохор Бахру","tr":"Johor Bahru","en-CA":"","en-NZ":"","en-IE":"","en-SG":"","en-IN":"","es":"Johor Bahru","fr":"Johor Bahru","it":"Johor Bahru","th":"ยะโฮร์บาห์รู"},"country_code":"MY"},{"code":"AAW","name":"Abbottabad","coordinates":{"lon":73.25,"lat":34.2},"time_zone":"Asia/Karachi","name_translations":{"en":"Abbottabad","zh-CN":"阿伯塔巴德","ru":"Абботтабад"},"country_code":"PK"},{"code":"AAX","name":"Araxa","coordinates":{"lon":-46.92917,"lat":-19.568056},"time_zone":"America/Sao_Paulo","name_translations":{"de":"Araxa","en":"Araxa","zh-CN":"阿拉沙","tr":"Araxa","ru":"Араша","it":"Araxa","es":"Araxa","fr":"Araxa","th":"อราซ่า"},"country_code":"BR"},{"code":"AAZ","name":"Quetzaltenango","coordinates":{"lon":-91.5,"lat":14.87},"time_zone":"America/Guatemala","name_translations":{"de":"Quetzaltenango","en":"Quetzaltenango","zh-CN":"克萨尔特南戈","ru":"Кесальтенанго"},"country_code":"GT"},{"code":"ABA","name":"Abakan","coordinates":{"lon":91.5,"lat":53.716667},"time_zone":"Asia/Krasnoyarsk","name_translations":{"de":"Abakan","en":"Abakan","zh-CN":"阿巴坎","tr":"Abakan","ru":"Абакан","it":"Abakan","es":"Abakán","fr":"Abakan","th":"อาบาคาน"},"country_code":"RU"},{"code":"ABC","name":"Albacete","coordinates":{"lon":-1.8600701,"lat":38.9976516},"time_zone":"Europe/Madrid","name_translations":{"de":"Albacete","en":"Albacete","tr":"Albacete","ru":"Альбасете","th":"อัลบาเซเต"},"country_code":"ES"},{"code":"ABD","name":"Abadan","coordinates":{"lon":48.226597,"lat":30.363905},"time_zone":"Asia/Tehran","name_translations":{"de":"Abadan","en":"Abadan","zh-CN":"阿巴达","tr":"Abadan","ru":"Абадан","th":"อบาดัน"},"country_code":"IR"},{"code":"ABE","name":"Allentown","coordinates":{"lon":-75.434364,"lat":40.651573},"time_zone":"America/New_York","name_translations":{"de":"Allentown/Bethlehem/Easton","en":"Allentown","zh-CN":"亚林镇","tr":"Allentown","ru":"Аллентаун","it":"Allentown","es":"Allentown","fr":"Allentown","th":"แอลเลนทาวน์"},"country_code":"US"},{"code":"ABF","name":"Abaiang","coordinates":{"lon":173.30417,"lat":1.670833},"time_zone":"Pacific/Tarawa","name_translations":{"de":"Abaiang","en":"Abaiang","zh-CN":"阿拜昂","tr":"Abaiang Atoll","ru":"Абаианг"},"country_code":"KI"},{"code":"ABG","name":"Abingdon","coordinates":{"lon":143.2,"lat":-17.666668},"time_zone":"Australia/Brisbane","name_translations":{"de":"Abingdon","en":"Abingdon","zh-CN":"阿宾登","ru":"Абингдон"},"country_code":"AU"},{"code":"ABH","name":"Alpha","coordinates":{"lon":146.63333,"lat":-23.65},"time_zone":"Australia/Brisbane","name_translations":{"de":"Alpha","en":"Alpha","zh-CN":"阿尔法","ru":"Альфа"},"country_code":"AU"},{"code":"ABJ","name":"Abidjan","coordinates":{"lon":-3.933015,"lat":5.254879},"time_zone":"Africa/Abidjan","name_translations":{"de":"Abidjan","en":"Abidjan","zh-CN":"阿比让","tr":"Abidjan","ru":"Абиджан","it":"Abidjan","es":"Abiyán","fr":"Abidjan","th":"อาบีจาน"},"country_code":"CI"},{"code":"ABK","name":"Kabri Dar","coordinates":{"lon":44.26611,"lat":6.733889},"time_zone":"Africa/Addis_Ababa","name_translations":{"de":"Kabri Dar","en":"Kabri Dar","zh-CN":"卡卜里达尔","tr":"Kabri Dar","ru":"Кабри Дар","it":"Kabri Dar","es":"Kabri Dar","fr":"Kabri Dar","th":"คาบริดาร์"},"country_code":"ET"},{"code":"ABM","name":"Bamaga","coordinates":{"lon":142.45033,"lat":-10.942619},"time_zone":"Australia/Brisbane","name_translations":{"de":"Bamaga","en":"Bamaga","zh-CN":"巴马加","tr":"Bamaga","ru":"Бамага","it":"Bamaga","es":"Bamaga","fr":"Bamaga","th":"บามาก้า"},"country_code":"AU"},{"code":"ABN","name":"Albina","coordinates":{"lon":-54.083332,"lat":5.5},"time_zone":"America/Paramaribo","name_translations":{"de":"Albina","en":"Albina","ru":"Албина"},"country_code":"SR"},{"code":"ABO","name":"Aboisso","coordinates":{"lon":-3.216667,"lat":5.433333},"time_zone":"Africa/Abidjan","name_translations":{"en":"Aboisso","ru":"Абуассо"},"country_code":"CI"},{"code":"ABP","name":"Atkamba","coordinates":{"lon":141.1,"lat":-6.066667},"time_zone":"Pacific/Port_Moresby","name_translations":{"de":"Atkamba","en":"Atkamba","ru":"Аткамба"},"country_code":"PG"},{"code":"ABQ","name":"Albuquerque","coordinates":{"lon":-106.617195,"lat":35.049625},"time_zone":"America/Denver","name_translations":{"de":"Albuquerque","en":"Albuquerque","zh-CN":"阿尔伯克基","tr":"Albuquerque","ru":"Альбукерке","it":"Albuquerque","es":"Alburquerque","fr":"Albuquerque","th":"อัลบูเคอร์คี"},"country_code":"US"},{"code":"ABR","name":"Aberdeen","coordinates":{"lon":-98.42611,"lat":45.4525},"time_zone":"America/Chicago","name_translations":{"de":"Aberdeen","en":"Aberdeen","ru":"Абердин","zh-CN":"阿伯丁","tr":"Aberdeen","it":"Aberdeen","es":"Aberdeen","fr":"Aberdeen","th":"แอเบอร์ดีน"},"country_code":"US"},{"code":"ABS","name":"Abu Simbel","coordinates":{"lon":31.609774,"lat":22.367567},"time_zone":"Africa/Cairo","name_translations":{"de":"Abu Simbel","en":"Abu Simbel","zh-CN":"阿布辛拜勒","tr":"Abu Simbel","ru":"Абу Симбел","it":"Abu Simbel","es":"Abu Simbel","fr":"Abou Simbel","th":"อาบูซิมเบล"},"country_code":"EG"},{"code":"ABV","name":"Abuja","coordinates":{"lon":7.270447,"lat":9.004614},"time_zone":"Africa/Lagos","name_translations":{"de":"Abuja","en":"Abuja","zh-CN":"阿布贾","tr":"Abuja","ru":"Абуджа","it":"Abuja","es":"Abuja","fr":"Abuja","th":"อาบูจา"},"country_code":"NG"},{"code":"ABW","name":"Abau","coordinates":{"lon":148.7,"lat":-10.183333},"time_zone":"Pacific/Port_Moresby","name_translations":{"de":"Abau","en":"Abau","ru":"Абау"},"country_code":"PG"},{"code":"ABX","name":"Albury","coordinates":{"lon":146.95453,"lat":-36.069626},"time_zone":"Australia/Sydney","name_translations":{"de":"Albury","en":"Albury","zh-CN":"奥伯里","tr":"Albury","ru":"Олбери","it":"Albury","es":"Albury","fr":"Albury","th":"อัลบิวรี"},"country_code":"AU"},{"code":"ABY","name":"Albany","coordinates":{"lon":-84.155741,"lat":31.5785074},"time_zone":"America/New_York","name_translations":{"de":"Albany","en":"Albany","ru":"Олбани","zh-CN":"奥尔巴尼","tr":"Albany","it":"Albany","es":"Albany","fr":"Albany","th":"ออลบานี"},"country_code":"US"},{"code":"ABZ","name":"Aberdeen","coordinates":{"lon":-2.095397,"lat":57.1474915},"time_zone":"Europe/London","name_translations":{"de":"Aberdeen","en":"Aberdeen","zh-CN":"阿伯丁","tr":"Aberdeen","ru":"Абердин","it":"Aberdeen","es":"Aberdeen","fr":"Aberdeen","th":"แอเบอร์ดีน"},"country_code":"GB"},{"code":"ACB","name":"Bellaire","coordinates":{"lon":-85.21667,"lat":44.983334},"time_zone":"America/Detroit","name_translations":{"en":"Bellaire","zh-CN":"贝莱尔","ru":"Беллер"},"country_code":"US"},{"code":"ACC","name":"Accra","coordinates":{"lon":-0.171769,"lat":5.60737},"time_zone":"Africa/Accra","name_translations":{"de":"Accra","en":"Accra","zh-CN":"阿克拉","tr":"Accra","ru":"Аккра","it":"Accra","es":"Accra","fr":"Accra","th":"อักกรา"},"country_code":"GH"},{"code":"ACD","name":"Acandi","coordinates":{"lon":-77.3,"lat":8.516667},"time_zone":"America/Bogota","name_translations":{"de":"Acandi","en":"Acandi","ru":"Аканди","th":"อาแคนติ"},"country_code":"CO"},{"code":"ACJ","name":"Anuradhapura","coordinates":{"lon":80.38333,"lat":8.35},"time_zone":"Asia/Colombo","name_translations":{"en":"Anuradhapura","zh-CN":"阿努拉德普勒","ru":"Анурадхапура"},"country_code":"LK"},{"code":"ACL","name":"Aguaclara","coordinates":{"lon":-73.0,"lat":4.75},"time_zone":"America/Bogota","name_translations":{"de":"Aguaclara","en":"Aguaclara","ru":"Агуаклара"},"country_code":"CO"},{"code":"ACM","name":"Arica","coordinates":{"lon":-71.833336,"lat":-2.0},"time_zone":"America/Bogota","name_translations":{"de":"Arica","en":"Arica","ru":"Арика"},"country_code":"CO"},{"code":"ACN","name":"Acuna","coordinates":{"lon":-100.916664,"lat":29.3},"time_zone":"America/Matamoros","name_translations":{"de":"Ciudad Acuna","en":"Acuna","zh-CN":"阿库尼亚","ru":"Акунья"},"country_code":"MX"},{"code":"ACP","name":"Sahand","coordinates":{"lon":46.145115,"lat":37.347244},"time_zone":"Asia/Tehran","name_translations":{"de":"Sahand","en":"Sahand","ru":"Саханд","th":"ซาฮันด์"},"country_code":"IR"},{"code":"ACS","name":"Achinsk","coordinates":{"lon":90.566666,"lat":56.266666},"time_zone":"Asia/Krasnoyarsk","name_translations":{"en":"Achinsk","tr":"Ascona","ru":"Ачинск","th":"แอคฮินสค์"},"country_code":"RU"},{"code":"ACT","name":"Waco","coordinates":{"lon":-97.1466695,"lat":31.549333},"time_zone":"America/Chicago","name_translations":{"de":"Waco","en":"Waco","zh-CN":"韦科","tr":"Waco","ru":"Вако","it":"Waco","es":"Waco","fr":"Waco","th":"เวโก"},"country_code":"US"},{"code":"ACU","name":"Achutupo","coordinates":{"lon":-79.72444,"lat":9.576389},"time_zone":"America/Panama","name_translations":{"de":"Achutupo","en":"Achutupo","zh-CN":"阿库杜伯","ru":"Ачутупо","it":"Achutupo","es":"Achutupo","fr":"Achutupo","th":"อัคฮูตูโป"},"country_code":"PA"},{"code":"ACZ","name":"Zabol","coordinates":{"lon":61.542244,"lat":31.087694},"time_zone":"Asia/Tehran","name_translations":{"de":"Zabol","en":"Zabol","ru":"Заболь","th":"ซาบอล"},"country_code":"IR"},{"code":"ADA","name":"Adana","coordinates":{"lon":35.3213333,"lat":37.0},"time_zone":"Europe/Istanbul","name_translations":{"de":"Adana","en":"Adana","zh-CN":"阿达那","tr":"Adana","ru":"Адана","it":"Adana","es":"Adana","fr":"Adana","th":"อาดานา"},"country_code":"TR"},{"code":"ADC","name":"Andakombe","coordinates":{"lon":145.73334,"lat":-7.133333},"time_zone":"Pacific/Port_Moresby","name_translations":{"de":"Andakombe","en":"Andakombe","ru":"Андакомбе"},"country_code":"PG"},{"code":"ADD","name":"Addis Ababa","coordinates":{"lon":38.7959,"lat":8.983759},"time_zone":"Africa/Addis_Ababa","name_translations":{"de":"Addis Abeba","en":"Addis Ababa","ru":"Аддис-Абеба","zh-CN":"亚的斯亚贝巴","tr":"Addis Ababa","it":"Addis Abeba","es":"Addis Abeba","fr":"Addis Abeba","th":"แอดดิสอาบาบา"},"country_code":"ET"},{"code":"ADE","name":"Aden","coordinates":{"lon":45.037537,"lat":12.826116},"time_zone":"Asia/Aden","name_translations":{"de":"Aden","en":"Aden","zh-CN":"亚丁","tr":"Aden","ru":"Аден","it":"Aden","es":"Adén","fr":"Aden","th":"เอเดน"},"country_code":"YE"},{"code":"ADG","name":"Adrian","coordinates":{"lon":-84.03333,"lat":41.9},"time_zone":"America/Detroit","name_translations":{"en":"Adrian","zh-CN":"阿德里安","tr":"Adrian","ru":"Адриан"},"country_code":"US"},{"code":"ADH","name":"Aldan","coordinates":{"lon":125.4,"lat":58.6},"time_zone":"Asia/Yakutsk","name_translations":{"de":"Aldan","en":"Aldan","zh-CN":"阿尔丹","tr":"Adrian","ru":"Алдан","it":"Aldan","es":"Aldan","fr":"Aldan","th":"อัลดัน"},"country_code":"RU"},{"code":"ADI","name":"Arandis","coordinates":{"lon":15.0,"lat":-22.4},"time_zone":"Africa/Windhoek","name_translations":{"en":"Arandis","zh-CN":"阿兰迪斯","ru":"Арандис"},"country_code":"NA"},{"code":"ADL","name":"Adelaide","coordinates":{"lon":138.5999594,"lat":-34.9286212},"time_zone":"Australia/Adelaide","name_translations":{"de":"Adelaide","en":"Adelaide","zh-CN":"阿德莱德","tr":"Adelaide","ru":"Аделаида","it":"Adelaide","es":"Adelaida","fr":"Adélaïde","th":"อเดเลด"},"country_code":"AU"},{"code":"ADN","name":"Andes","coordinates":{"lon":-75.933334,"lat":5.666667},"time_zone":"America/Bogota","name_translations":{"de":"Andes","en":"Andes","ru":"Андес"},"country_code":"CO"},{"code":"ADO","name":"Andamooka","coordinates":{"lon":137.15,"lat":-31.016666},"time_zone":"Australia/Adelaide","name_translations":{"de":"Andamooka","en":"Andamooka","zh-CN":"安达穆卡","ru":"Андамука"},"country_code":"AU"},{"code":"ADQ","name":"Kodiak","coordinates":{"lon":-152.4072222,"lat":57.79},"time_zone":"America/Anchorage","name_translations":{"de":"Kodiak","en":"Kodiak","zh-CN":"科迪亚克","tr":"Kodiak","ru":"Кадьяк","it":"Kodiak","es":"Kodiak","fr":"Kodiak","th":"โคดิแอ็ก"},"country_code":"US"},{"code":"ADR","name":"Andrews","coordinates":{"lon":-79.566666,"lat":33.45},"time_zone":"America/New_York","name_translations":{"en":"Andrews","zh-CN":"安德鲁斯","ru":"Эндрюс"},"country_code":"US"},{"code":"ADT","name":"Ada","coordinates":{"lon":-96.666664,"lat":34.8},"time_zone":"America/Chicago","name_translations":{"en":"Ada","zh-CN":"阿达纳","tr":"Ada OK","ru":"Ада"},"country_code":"US"},{"code":"ADU","name":"Ardabil","coordinates":{"lon":48.42125,"lat":38.323826},"time_zone":"Asia/Tehran","name_translations":{"de":"Ardabil","en":"Ardabil","zh-CN":"阿尔达比勒","tr":"Ardabil","ru":"Ардабил","th":"อาร์ดาบิล"},"country_code":"IR"},{"code":"ADW","name":"Camp Springs","coordinates":{"lon":-76.86667,"lat":38.816666},"time_zone":"America/New_York","name_translations":{"en":"Camp Springs","zh-CN":"坎斯普林斯","tr":"Camp Springs","ru":"Камп Спрингс"},"country_code":"US"},{"code":"ADX","name":"St Andrews","coordinates":{"lon":-2.866667,"lat":56.36667},"time_zone":"Europe/London","name_translations":{"en":"St Andrews","tr":"St Andrews","ru":"Сент-Эндрюс"},"country_code":"GB"},{"code":"ADY","name":"Alldays","coordinates":{"lon":29.05,"lat":-22.666668},"time_zone":"Africa/Johannesburg","name_translations":{"en":"Alldays","zh-CN":"奥尔代斯","ru":"Олдэйс"},"country_code":"ZA"},{"code":"AEA","name":"Abemama Atoll","coordinates":{"lon":173.85,"lat":0.483333},"time_zone":"Pacific/Tarawa","name_translations":{"de":"Abemama Atoll","en":"Abemama Atoll","zh-CN":"阿贝马马环礁","tr":"Abemama","ru":"Абемама"},"country_code":"KI"},{"code":"AED","name":"Aleneva","coordinates":{"lon":-152.9,"lat":58.033333},"time_zone":"America/Anchorage","name_translations":{"en":"Aleneva","ru":"Аленива"},"country_code":"US"},{"code":"AEI","name":"Algeciras","coordinates":{"lon":-5.441301,"lat":36.1289},"time_zone":"Europe/Madrid","name_translations":{"de":"Algeciras","en":"Algeciras","tr":"Algeciras","ru":"Альхесирас"},"country_code":"ES"},{"code":"AEK","name":"Aseki","coordinates":{"lon":146.28334,"lat":-7.366667},"time_zone":"Pacific/Port_Moresby","name_translations":{"de":"Aseki","en":"Aseki","ru":"Асеки"},"country_code":"PG"},{"code":"AEL","name":"Albert Lea","coordinates":{"lon":-93.36667,"lat":43.65},"time_zone":"America/Chicago","name_translations":{"en":"Albert Lea","zh-CN":"阿尔波特雷阿","tr":"Albert Lea","ru":"Альберт-Ли"},"country_code":"US"},{"code":"AEO","name":"Aioun El Atrouss","coordinates":{"lon":-9.635556,"lat":16.709167},"time_zone":"Africa/Nouakchott","name_translations":{"en":"Aioun El Atrouss","tr":"Aioun El Atrouss","ru":"Аюн-эль-Атрус"},"country_code":"MR"},{"code":"AER","name":"Sochi","coordinates":{"lon":39.941105,"lat":43.44884},"time_zone":"Europe/Moscow","name_translations":{"de":"Adler","en":"Sochi","zh-CN":"索契","tr":"Adler\\/Sochi","ru":"Адлер","it":"Adler","es":"Adler","fr":"Adler","th":"โซซี"},"country_code":"RU"},{"code":"AES","name":"Aalesund","coordinates":{"lon":6.116605,"lat":62.559643},"time_zone":"Europe/Oslo","name_translations":{"de":"Aalesund","en":"Aalesund","zh-CN":"奥勒松","tr":"Aalesund","ru":"Аалесунд","it":"Alesund","es":"Alesund","fr":"Alesund","th":"อาเลซันด์ไวกร้า"},"country_code":"NO"},{"code":"AEU","name":"Abu Musa","coordinates":{"lon":55.041668,"lat":25.8875},"time_zone":"Asia/Tehran","name_translations":{"de":"Abu Musa","en":"Abu Musa","ru":"Абу Муса"},"country_code":"IR"},{"code":"AEX","name":"Alexandria","coordinates":{"lon":-92.4451371,"lat":31.3112936},"time_zone":"America/Chicago","name_translations":{"de":"Alexandria","en":"Alexandria","zh-CN":"亚历山卓","tr":"Alexandria","ru":"Александрия","it":"Alexandria","es":"Alexandria","fr":"Alexandria","th":"อะเล็กซานเดรีย"},"country_code":"US"},{"code":"AEY","name":"Akureyri","coordinates":{"lon":-18.075068,"lat":65.654564},"time_zone":"Atlantic/Reykjavik","name_translations":{"de":"Akureyri","en":"Akureyri","zh-CN":"阿克雷里","tr":"Akureyri","ru":"Акюрейри","it":"Akureyri","es":"Akureyri","fr":"Akureyri","th":"อาคูรี"},"country_code":"IS"},{"code":"AFA","name":"San Rafael","coordinates":{"lon":-68.40056,"lat":-34.58917},"time_zone":"America/Argentina/Mendoza","name_translations":{"de":"San Rafael","en":"San Rafael","zh-CN":"圣拉斐尔","tr":"San Rafael","ru":"Сан-Рафаэль","it":"San Rafael","es":"San Rafael","fr":"San Rafael","th":"ซานราฟาเอล"},"country_code":"AR"},{"code":"AFD","name":"Port Alfred","coordinates":{"lon":26.883333,"lat":-33.583332},"time_zone":"Africa/Johannesburg","name_translations":{"en":"Port Alfred","ru":"Порт Альфред"},"country_code":"ZA"},{"code":"AFI","name":"Amalfi","coordinates":{"lon":-75.066666,"lat":6.916667},"time_zone":"America/Bogota","name_translations":{"de":"Amalfi","en":"Amalfi","zh-CN":"阿马尔菲","ru":"Амальфи"},"country_code":"CO"},{"code":"AFL","name":"Alta Floresta","coordinates":{"lon":-56.104767,"lat":-9.872456},"time_zone":"America/Cuiaba","name_translations":{"de":"Alta Floresta","en":"Alta Floresta","zh-CN":"旧弗洛雷斯塔","tr":"Alta Floresta","ru":"Алта-Флореста","it":"Alta Floresta","es":"Alta Floresta","fr":"Alta Floresta","th":"อัลตาฟลอเรสตา"},"country_code":"BR"},{"code":"AFN","name":"Jaffrey","coordinates":{"lon":-72.066666,"lat":42.833332},"time_zone":"America/New_York","name_translations":{"en":"Jaffrey","zh-CN":"杰弗里","ru":"Джаффри"},"country_code":"US"},{"code":"AFO","name":"Afton","coordinates":{"lon":-110.933334,"lat":42.733334},"time_zone":"America/Denver","name_translations":{"en":"Afton","zh-CN":"阿夫顿","ru":"Афтон"},"country_code":"US"},{"code":"AFR","name":"Afore","coordinates":{"lon":148.38333,"lat":-9.133333},"time_zone":"Pacific/Port_Moresby","name_translations":{"de":"Afore","en":"Afore","ru":"Афор"},"country_code":"PG"},{"code":"AFT","name":"Afutara","coordinates":{"lon":160.85,"lat":-9.2},"time_zone":"Pacific/Guadalcanal","name_translations":{"de":"Afutara","en":"Afutara","tr":"Afutara","ru":"Афутара","it":"Afutara","es":"Afutara","fr":"Afutara"},"country_code":"SB"},{"code":"AFY","name":"Afyon","coordinates":{"lon":30.6,"lat":38.733334},"time_zone":"Europe/Istanbul","name_translations":{"de":"Afyon","en":"Afyon","zh-CN":"阿夫永","tr":"Afyon","ru":"Афьонкарахисар"},"country_code":"TR"},{"code":"AGA","name":"Agadir","coordinates":{"lon":-9.555895,"lat":30.378326},"time_zone":"Africa/Casablanca","name_translations":{"de":"Agadir","en":"Agadir","zh-CN":"阿加迪尔","tr":"Agadir","ru":"Агадир","it":"Agadir","es":"Agadir","fr":"Agadir","th":"อากาดีร์"},"country_code":"MA"},{"code":"AGD","name":"Anggi","coordinates":{"lon":133.86667,"lat":-1.383333},"time_zone":"Asia/Jayapura","name_translations":{"de":"Anggi","en":"Anggi","zh-CN":"安吉","tr":"Anggi","ru":"Ангги"},"country_code":"ID"},{"code":"AGE","name":"Wangerooge","coordinates":{"lon":7.916667,"lat":53.783333},"time_zone":"Europe/Berlin","name_translations":{"en":"Wangerooge","zh-CN":"万根沃格","tr":"Wangerooge","ru":"Вангероге"},"country_code":"DE"},{"code":"AGF","name":"Agen","coordinates":{"lon":0.598611,"lat":44.17361},"time_zone":"Europe/Paris","name_translations":{"de":"Agen","en":"Agen","zh-CN":"阿让","tr":"Agen","ru":"Ажен","it":"Agen","es":"Agen","fr":"Agen","th":"อาแฌ็ง"},"country_code":"FR"},{"code":"AGG","name":"Angoram","coordinates":{"lon":144.07388,"lat":-4.168611},"time_zone":"Pacific/Port_Moresby","name_translations":{"de":"Angoram","en":"Angoram","ru":"Ангорам"},"country_code":"PG"},{"code":"AGH","name":"Angelholm","coordinates":{"lon":12.8615092,"lat":56.2432},"time_zone":"Europe/Stockholm","name_translations":{"de":"Angelholm/Helsingborg","en":"Angelholm","ru":"Енгелхолм","zh-CN":"恩厄尔霍尔姆/海尔辛堡","tr":"Angelholm","it":"Angelholm","es":"Angelholm","fr":"Angelholm","th":"เฮลซิงบอร์ก (แองเกิลโฮล์ม)"},"country_code":"SE"},{"code":"AGI","name":"Wageningen","coordinates":{"lon":-56.833332,"lat":5.833333},"time_zone":"America/Paramaribo","name_translations":{"de":"Wageningen","en":"Wageningen","tr":"Wagenigen","ru":"Вагенинген"},"country_code":"SR"},{"code":"AGJ","name":"Aguni","coordinates":{"lon":127.23805,"lat":26.589722},"time_zone":"Asia/Tokyo","name_translations":{"en":"Aguni","zh-CN":"粟国","tr":"Aguni","ru":"Агуни"},"country_code":"JP"},{"code":"AGK","name":"Kagua","coordinates":{"lon":143.84666,"lat":-6.403333},"time_zone":"Pacific/Port_Moresby","name_translations":{"de":"Kagua","en":"Kagua","ru":"Кагуа"},"country_code":"PG"},{"code":"AGL","name":"Wanigela","coordinates":{"lon":149.15527,"lat":-9.340278},"time_zone":"Pacific/Port_Moresby","name_translations":{"de":"Wanigela","en":"Wanigela","tr":"Wanigela","ru":"Ванигела"},"country_code":"PG"},{"code":"AGM","name":"Tasiilaq","coordinates":{"lon":-37.683334,"lat":65.6},"time_zone":"America/Godthab","name_translations":{"de":"Tasiilaq","en":"Tasiilaq","ru":"Тасиилак","it":"Tasiilaq","es":"Tasiilaq","fr":"Tasiilaq","th":"ทาซิลัค"},"country_code":"GL"},{"code":"AGN","name":"Angoon","coordinates":{"lon":-134.58333,"lat":57.503887},"time_zone":"America/Juneau","name_translations":{"de":"Angoon","en":"Angoon","tr":"Angoon","ru":"Ангун","it":"Angoon","es":"Angoon","fr":"Angoon","th":"อันกูน"},"country_code":"US"}]